{
  "tasta_lestiu_tastos_maridats_tàrrega": {
    "nom": "Tasta l'estiu: Tastos maridats",
    "ubicacio": "Tàrrega",
    "data_inici": "2025/07/30",
    "data_fi": "2025/07/30",
    "latitud": 41.6494,
    "longitud": 1.141725,
    "cartell": "https://festacatalana.github.io/fires-assets/cartells/setmana_31/tasta_lestiu_tastos_maridats_tàrrega.png",
    "pdf": "https://festacatalana.github.io/fires-assets/pdfs/setmana_31/tasta_lestiu_tastos_maridats_tàrrega.pdf"
  },
  "visita_al_molí_de_la_conqueta__sopar_sant_feliu_de_pallerols": {
    "nom": "Visita al molí de la conqueta + sopar",
    "ubicacio": "Sant Feliu de Pallerols",
    "data_inici": "2025/07/28",
    "data_fi": "2025/07/28",
    "latitud": 42.0767777778,
    "longitud": 2.5088972222,
    "cartell": "https://festacatalana.github.io/fires-assets/cartells/setmana_31/visita_al_molí_de_la_conqueta__sopar_sant_feliu_de_pallerols.png",
    "pdf": "https://festacatalana.github.io/fires-assets/pdfs/setmana_31/visita_al_molí_de_la_conqueta__sopar_sant_feliu_de_pallerols.pdf"
  },
  "festa_petita_sant_feliu_de_pallerols": {
    "nom": "Festa petita",
    "ubicacio": "Sant Feliu de Pallerols",
    "data_inici": "2025/08/01",
    "data_fi": "2025/08/01",
    "latitud": 42.0767777778,
    "longitud": 2.5088972222,
    "cartell": "https://festacatalana.github.io/fires-assets/cartells/setmana_31/festa_petita_sant_feliu_de_pallerols.png",
    "pdf": "https://festacatalana.github.io/fires-assets/pdfs/setmana_31/festa_petita_sant_feliu_de_pallerols.pdf"
  },
  "iv_fràter_festfesta_de_la_fràter_sant_feliu_de_pallerols": {
    "nom": "IV fràter fest-festa de la fràter",
    "ubicacio": "Sant Feliu de Pallerols",
    "data_inici": "2025/08/02",
    "data_fi": "2025/08/02",
    "latitud": 42.0767777778,
    "longitud": 2.5088972222,
    "cartell": "https://festacatalana.github.io/fires-assets/cartells/setmana_31/iv_fràter_festfesta_de_la_fràter_sant_feliu_de_pallerols.png",
    "pdf": "https://festacatalana.github.io/fires-assets/pdfs/setmana_31/iv_fràter_festfesta_de_la_fràter_sant_feliu_de_pallerols.pdf"
  },
  "altafujazz_altafulla": {
    "nom": "ALTAFUJAZZ",
    "ubicacio": "Altafulla",
    "data_inici": "2025/08/02",
    "data_fi": "2025/08/02",
    "latitud": 41.1425,
    "longitud": 1.3771305556,
    "cartell": "https://festacatalana.github.io/fires-assets/cartells/setmana_31/altafujazz_altafulla.png",
    "pdf": "https://festacatalana.github.io/fires-assets/pdfs/setmana_31/altafujazz_altafulla.pdf"
  },
  "cantada_dhavaneres_altafulla": {
    "nom": "Cantada d'havaneres",
    "ubicacio": "Altafulla",
    "data_inici": "2025/08/03",
    "data_fi": "2025/08/03",
    "latitud": 41.1425,
    "longitud": 1.3771305556,
    "cartell": "https://festacatalana.github.io/fires-assets/cartells/setmana_31/cantada_dhavaneres_altafulla.png",
    "pdf": "https://festacatalana.github.io/fires-assets/pdfs/setmana_31/cantada_dhavaneres_altafulla.pdf"
  },
  "festa_major_cabrera_de_mar": {
    "nom": "Festa Major",
    "ubicacio": "Cabrera de Mar",
    "data_inici": "2025/07/31",
    "data_fi": "2025/08/03",
    "latitud": 41.5267833333,
    "longitud": 2.3955583333,
    "cartell": "https://festacatalana.github.io/fires-assets/cartells/setmana_31/festa_major_cabrera_de_mar.png",
    "pdf": "https://festacatalana.github.io/fires-assets/pdfs/setmana_31/festa_major_cabrera_de_mar.pdf"
  },
  "sardanes_a_la_fresca_amb_la_cobla_la_principal_de_cassà_sils": {
    "nom": "Sardanes a la fresca amb la cobla \"La principal de Cassà\"",
    "ubicacio": "Sils",
    "data_inici": "2028/08/01",
    "data_fi": "2028/08/01",
    "latitud": 41.8087,
    "longitud": 2.7447916667,
    "cartell": "https://festacatalana.github.io/fires-assets/cartells/setmana_31/sardanes_a_la_fresca_amb_la_cobla_la_principal_de_cassà_sils.png",
    "pdf": "https://festacatalana.github.io/fires-assets/pdfs/setmana_31/sardanes_a_la_fresca_amb_la_cobla_la_principal_de_cassà_sils.pdf"
  },
  "festa_de_les_comes_sils": {
    "nom": "Festa de les comes",
    "ubicacio": "Sils",
    "data_inici": "2025/08/01",
    "data_fi": "2025/08/02",
    "latitud": 41.8087,
    "longitud": 2.7447916667,
    "cartell": "https://festacatalana.github.io/fires-assets/cartells/setmana_31/festa_de_les_comes_sils.png",
    "pdf": "https://festacatalana.github.io/fires-assets/pdfs/setmana_31/festa_de_les_comes_sils.pdf"
  },
  "ruta_cultural_el_veïnat_de_la_barceloneta_sils": {
    "nom": "Ruta cultural: El veïnat de la Barceloneta",
    "ubicacio": "Sils",
    "data_inici": "2028/08/05",
    "data_fi": "2028/08/05",
    "latitud": 41.8087,
    "longitud": 2.7447916667,
    "cartell": "https://festacatalana.github.io/fires-assets/cartells/setmana_31/ruta_cultural_el_veïnat_de_la_barceloneta_sils.png",
    "pdf": "https://festacatalana.github.io/fires-assets/pdfs/setmana_31/ruta_cultural_el_veïnat_de_la_barceloneta_sils.pdf"
  },
  "cinema_a_la_fresca_gru_4_cassà_de_la_selva": {
    "nom": "Cinema a la fresca \"GRU 4\"",
    "ubicacio": "Cassà de la Selva",
    "data_inici": "2025/07/30",
    "data_fi": "2025/07/30",
    "latitud": 41.8884027778,
    "longitud": 2.8773583333,
    "cartell": "https://festacatalana.github.io/fires-assets/cartells/setmana_31/cinema_a_la_fresca_gru_4_cassà_de_la_selva.png",
    "pdf": "https://festacatalana.github.io/fires-assets/pdfs/setmana_31/cinema_a_la_fresca_gru_4_cassà_de_la_selva.pdf"
  },
  "festa_major_sant_cugat_sesgarrigues": {
    "nom": "Festa major",
    "ubicacio": "Sant Cugat Sesgarrigues",
    "data_inici": "2025/07/18",
    "data_fi": "2025/07/28",
    "latitud": 41.365525,
    "longitud": 1.7542416667,
    "cartell": "https://festacatalana.github.io/fires-assets/cartells/setmana_29/festa_major_sant_cugat_sesgarrigues.png",
    "pdf": "https://festacatalana.github.io/fires-assets/pdfs/setmana_29/festa_major_sant_cugat_sesgarrigues.pdf"
  },
  "festa_major_riudecanyes": {
    "nom": "Festa major",
    "ubicacio": "Riudecanyes",
    "data_inici": "2025/07/22",
    "data_fi": "2025/07/28",
    "latitud": 41.1309583333,
    "longitud": 0.9625583333,
    "cartell": "https://festacatalana.github.io/fires-assets/cartells/setmana_30/festa_major_riudecanyes.png",
    "pdf": "https://festacatalana.github.io/fires-assets/pdfs/setmana_30/festa_major_riudecanyes.pdf"
  },
  "festa_major_destiu_vilallonga_del_camp": {
    "nom": "Festa Major d'estiu",
    "ubicacio": "Vilallonga del camp",
    "data_inici": "2025/07/24",
    "data_fi": "2025/07/31",
    "latitud": 41.2125027778,
    "longitud": 1.2070944444,
    "cartell": "https://festacatalana.github.io/fires-assets/cartells/setmana_30/festa_major_destiu_vilallonga_del_camp.png",
    "pdf": "https://festacatalana.github.io/fires-assets/pdfs/setmana_30/festa_major_destiu_vilallonga_del_camp.pdf"
  },
  "festa_major_arbúcies": {
    "nom": "Festa Major",
    "ubicacio": "Arbúcies",
    "data_inici": "2025/07/24",
    "data_fi": "2025/07/28",
    "latitud": 41.816975,
    "longitud": 2.5169055556,
    "cartell": "https://festacatalana.github.io/fires-assets/cartells/setmana_30/festa_major_arbúcies.png",
    "pdf": "https://festacatalana.github.io/fires-assets/pdfs/setmana_30/festa_major_arbúcies.pdf"
  },
  "festes_majors_sant_jaume_denveja": {
    "nom": "Festes majors",
    "ubicacio": "Sant Jaume d'Enveja",
    "data_inici": "2025/07/24",
    "data_fi": "2025/08/03",
    "latitud": 40.7068861111,
    "longitud": 0.7189916667,
    "cartell": "https://festacatalana.github.io/fires-assets/cartells/setmana_30/festes_majors_sant_jaume_denveja.png",
    "pdf": "https://festacatalana.github.io/fires-assets/pdfs/setmana_30/festes_majors_sant_jaume_denveja.pdf"
  },
  "festa_major_destiu_vilaseca": {
    "nom": "Festa Major d'estiu",
    "ubicacio": "Vila-seca",
    "data_inici": "2025/07/25",
    "data_fi": "2025/08/03",
    "latitud": 41.1113277778,
    "longitud": 1.1468611111,
    "cartell": "https://festacatalana.github.io/fires-assets/cartells/setmana_30/festa_major_destiu_vilaseca.png",
    "pdf": "https://festacatalana.github.io/fires-assets/pdfs/setmana_30/festa_major_destiu_vilaseca.pdf"
  },
  "festa_major_de_mataró_les_santes_mataró": {
    "nom": "Festa Major de Mataró \"Les Santes\"",
    "ubicacio": "Mataró",
    "data_inici": "2025/07/25",
    "data_fi": "2025/07/29",
    "latitud": 41.5411944444,
    "longitud": 2.4453083333,
    "cartell": "https://festacatalana.github.io/fires-assets/cartells/setmana_30/festa_major_de_mataró_les_santes_mataró.png",
    "pdf": "https://festacatalana.github.io/fires-assets/pdfs/setmana_30/festa_major_de_mataró_les_santes_mataró.pdf"
  },
  "festa_major_la_garriga": {
    "nom": "Festa Major",
    "ubicacio": "La Garriga",
    "data_inici": "2025/07/31",
    "data_fi": "2025/08/03",
    "latitud": 41.6852555556,
    "longitud": 2.2863027778,
    "cartell": "https://festacatalana.github.io/fires-assets/cartells/setmana_31/festa_major_la_garriga.png",
    "pdf": "https://festacatalana.github.io/fires-assets/pdfs/setmana_31/festa_major_la_garriga.pdf"
  },
  "festa_major_sant_guim_de_freixenet": {
    "nom": "Festa Major",
    "ubicacio": "Sant Guim de Freixenet",
    "data_inici": "2025/07/31",
    "data_fi": "2025/08/04",
    "latitud": 41.6567416667,
    "longitud": 1.4219305556,
    "cartell": "https://festacatalana.github.io/fires-assets/cartells/setmana_31/festa_major_sant_guim_de_freixenet.png",
    "pdf": "https://festacatalana.github.io/fires-assets/pdfs/setmana_31/festa_major_sant_guim_de_freixenet.pdf"
  },
  "festa_major_pacs_del_penedès": {
    "nom": "Festa Major",
    "ubicacio": "Pacs del Penedès",
    "data_inici": "2025/08/01",
    "data_fi": "2025/08/04",
    "latitud": 41.36335,
    "longitud": 1.6709555556,
    "cartell": "https://festacatalana.github.io/fires-assets/cartells/setmana_31/festa_major_pacs_del_penedès.png",
    "pdf": "https://festacatalana.github.io/fires-assets/pdfs/setmana_31/festa_major_pacs_del_penedès.pdf"
  }
}