{
  "v_aplec_sardanista_de_la_vall_dhostoles_sant_feliu_de_pallerols": {
    "nom": "V aplec sardanista de la vall d'Hostoles",
    "ubicacio": "Sant Feliu de Pallerols",
    "data_inici": "2025/08/10",
    "data_fi": "2025/08/10",
    "latitud": 42.0767777778,
    "longitud": 2.5088972222,
    "cartell": "https://festacatalana.github.io/fires-assets/cartells/setmana_32/v_aplec_sardanista_de_la_vall_dhostoles_sant_feliu_de_pallerols.png",
    "pdf": "https://festacatalana.github.io/fires-assets/pdfs/setmana_32/v_aplec_sardanista_de_la_vall_dhostoles_sant_feliu_de_pallerols.pdf"
  },
  "art_al_carrer_i_mercat_dart_altafulla": {
    "nom": "Art al carrer i mercat d'art",
    "ubicacio": "Altafulla",
    "data_inici": "2025/08/09",
    "data_fi": "2025/08/09",
    "latitud": 41.1425,
    "longitud": 1.3771305556,
    "cartell": "https://festacatalana.github.io/fires-assets/cartells/setmana_32/art_al_carrer_i_mercat_dart_altafulla.png",
    "pdf": "https://festacatalana.github.io/fires-assets/pdfs/setmana_32/art_al_carrer_i_mercat_dart_altafulla.pdf"
  },
  "festa_holi_colours_altafulla": {
    "nom": "Festa holi colours",
    "ubicacio": "Altafulla",
    "data_inici": "2025/08/10",
    "data_fi": "2025/08/10",
    "latitud": 41.1425,
    "longitud": 1.3771305556,
    "cartell": "https://festacatalana.github.io/fires-assets/cartells/setmana_32/festa_holi_colours_altafulla.png",
    "pdf": "https://festacatalana.github.io/fires-assets/pdfs/setmana_32/festa_holi_colours_altafulla.pdf"
  },
  "festival_internacional_de_música_concert_de_música_de_cambra_altafulla": {
    "nom": "Festival internacional de música: Concert de música de cambra",
    "ubicacio": "Altafulla",
    "data_inici": "2025/08/05",
    "data_fi": "2025/08/05",
    "latitud": 41.1425,
    "longitud": 1.3771305556,
    "cartell": "https://festacatalana.github.io/fires-assets/cartells/setmana_32/festival_internacional_de_música_concert_de_música_de_cambra_altafulla.png",
    "pdf": "https://festacatalana.github.io/fires-assets/pdfs/setmana_32/festival_internacional_de_música_concert_de_música_de_cambra_altafulla.pdf"
  },
  "festival_internacional_de_música_en_record_del_baríton_david_van_asch_altafulla": {
    "nom": "Festival internacional de música: En record del baríton David Van Asch",
    "ubicacio": "Altafulla",
    "data_inici": "2025/08/08",
    "data_fi": "2025/08/08",
    "latitud": 41.1425,
    "longitud": 1.3771305556,
    "cartell": "https://festacatalana.github.io/fires-assets/cartells/setmana_32/festival_internacional_de_música_en_record_del_baríton_david_van_asch_altafulla.png",
    "pdf": "https://festacatalana.github.io/fires-assets/pdfs/setmana_32/festival_internacional_de_música_en_record_del_baríton_david_van_asch_altafulla.pdf"
  },
  "open_de_domino_altafulla": {
    "nom": "Open de domino",
    "ubicacio": "Altafulla",
    "data_inici": "2025/08/09",
    "data_fi": "2025/08/09",
    "latitud": 41.1425,
    "longitud": 1.3771305556,
    "cartell": "https://festacatalana.github.io/fires-assets/cartells/setmana_32/open_de_domino_altafulla.png",
    "pdf": "https://festacatalana.github.io/fires-assets/pdfs/setmana_32/open_de_domino_altafulla.pdf"
  },
  "cercavila_del_seguici_popular_baix_a_mar_altafulla": {
    "nom": "Cercavila del seguici popular: Baix a mar",
    "ubicacio": "Altafulla",
    "data_inici": "2025/08/09",
    "data_fi": "2025/08/09",
    "latitud": 41.1425,
    "longitud": 1.3771305556,
    "cartell": "https://festacatalana.github.io/fires-assets/cartells/setmana_32/cercavila_del_seguici_popular_baix_a_mar_altafulla.png",
    "pdf": "https://festacatalana.github.io/fires-assets/pdfs/setmana_32/cercavila_del_seguici_popular_baix_a_mar_altafulla.pdf"
  },
  "correfoc_dels_diables_daltafulla_altafulla": {
    "nom": "Correfoc dels diables d'altafulla",
    "ubicacio": "Altafulla",
    "data_inici": "2025/08/09",
    "data_fi": "2025/08/09",
    "latitud": 41.1425,
    "longitud": 1.3771305556,
    "cartell": "https://festacatalana.github.io/fires-assets/cartells/setmana_32/correfoc_dels_diables_daltafulla_altafulla.png",
    "pdf": "https://festacatalana.github.io/fires-assets/pdfs/setmana_32/correfoc_dels_diables_daltafulla_altafulla.pdf"
  },
  "sardanes_a_la_fresca_amb_la_cobla_la_principal_dolot_sils": {
    "nom": "Sardanes a la fresca amb la cobla \"La principal d'Olot\"",
    "ubicacio": "Sils",
    "data_inici": "2025/08/08",
    "data_fi": "2025/08/08",
    "latitud": 41.8087,
    "longitud": 2.7447916667,
    "cartell": "https://festacatalana.github.io/fires-assets/cartells/setmana_32/sardanes_a_la_fresca_amb_la_cobla_la_principal_dolot_sils.png",
    "pdf": "https://festacatalana.github.io/fires-assets/pdfs/setmana_32/sardanes_a_la_fresca_amb_la_cobla_la_principal_dolot_sils.pdf"
  },
  "concert_amb_el_grup_ionico_sils": {
    "nom": "Concert amb el grup \"Ionico\"",
    "ubicacio": "Sils",
    "data_inici": "2028/08/09",
    "data_fi": "2028/08/09",
    "latitud": 41.8087,
    "longitud": 2.7447916667,
    "cartell": "https://festacatalana.github.io/fires-assets/cartells/setmana_32/concert_amb_el_grup_ionico_sils.png",
    "pdf": "https://festacatalana.github.io/fires-assets/pdfs/setmana_32/concert_amb_el_grup_ionico_sils.pdf"
  },
  "cinema_a_la_fresca_la_estrella_azul_cassà_de_la_selva": {
    "nom": "Cinema a la fresca \"La estrella azul\"",
    "ubicacio": "Cassà de la Selva",
    "data_inici": "2025/08/06",
    "data_fi": "2025/08/06",
    "latitud": 41.8884027778,
    "longitud": 2.8773583333,
    "cartell": "https://festacatalana.github.io/fires-assets/cartells/setmana_32/cinema_a_la_fresca_la_estrella_azul_cassà_de_la_selva.png",
    "pdf": "https://festacatalana.github.io/fires-assets/pdfs/setmana_32/cinema_a_la_fresca_la_estrella_azul_cassà_de_la_selva.pdf"
  },
  "festa_major_sant_guim_de_freixenet": {
    "nom": "Festa Major",
    "ubicacio": "Sant Guim de Freixenet",
    "data_inici": "2025/07/31",
    "data_fi": "2025/08/04",
    "latitud": 41.6567416667,
    "longitud": 1.4219305556,
    "cartell": "https://festacatalana.github.io/fires-assets/cartells/setmana_31/festa_major_sant_guim_de_freixenet.png",
    "pdf": "https://festacatalana.github.io/fires-assets/pdfs/setmana_31/festa_major_sant_guim_de_freixenet.pdf"
  },
  "festa_major_pacs_del_penedès": {
    "nom": "Festa Major",
    "ubicacio": "Pacs del Penedès",
    "data_inici": "2025/08/01",
    "data_fi": "2025/08/04",
    "latitud": 41.36335,
    "longitud": 1.6709555556,
    "cartell": "https://festacatalana.github.io/fires-assets/cartells/setmana_31/festa_major_pacs_del_penedès.png",
    "pdf": "https://festacatalana.github.io/fires-assets/pdfs/setmana_31/festa_major_pacs_del_penedès.pdf"
  },
  "festes_majors_destiu_la_fatarella": {
    "nom": "Festes Majors d'estiu",
    "ubicacio": "La Fatarella",
    "data_inici": "2025/08/02",
    "data_fi": "2025/08/07",
    "latitud": 41.1631805556,
    "longitud": 0.4750083333,
    "cartell": "https://festacatalana.github.io/fires-assets/cartells/setmana_31/festes_majors_destiu_la_fatarella.png",
    "pdf": "https://festacatalana.github.io/fires-assets/pdfs/setmana_31/festes_majors_destiu_la_fatarella.pdf"
  },
  "festa_major_can_rossell_de_la_serra_torrelavit": {
    "nom": "Festa major Can Rossell de la Serra",
    "ubicacio": "Torrelavit",
    "data_inici": "2025/08/08",
    "data_fi": "2025/08/10",
    "latitud": 41.4487472222,
    "longitud": 1.7301111111,
    "cartell": "https://festacatalana.github.io/fires-assets/cartells/setmana_32/festa_major_can_rossell_de_la_serra_torrelavit.png",
    "pdf": "https://festacatalana.github.io/fires-assets/pdfs/setmana_32/festa_major_can_rossell_de_la_serra_torrelavit.pdf"
  },
  "festa_major_maçanet_de_la_selva": {
    "nom": "Festa Major",
    "ubicacio": "Maçanet de la Selva",
    "data_inici": "2025/08/07",
    "data_fi": "2025/08/10",
    "latitud": 41.7787277778,
    "longitud": 2.7334777778,
    "cartell": "https://festacatalana.github.io/fires-assets/cartells/setmana_32/festa_major_maçanet_de_la_selva.png",
    "pdf": "https://festacatalana.github.io/fires-assets/pdfs/setmana_32/festa_major_maçanet_de_la_selva.pdf"
  },
  "festa_major_sant_llorenç_dhortons": {
    "nom": "Festa Major",
    "ubicacio": "Sant Llorenç d'hortons",
    "data_inici": "2025/08/01",
    "data_fi": "2025/08/12",
    "latitud": 41.4689833333,
    "longitud": 1.8255722222,
    "cartell": "https://festacatalana.github.io/fires-assets/cartells/setmana_31/festa_major_sant_llorenç_dhortons.png",
    "pdf": "https://festacatalana.github.io/fires-assets/pdfs/setmana_31/festa_major_sant_llorenç_dhortons.pdf"
  },
  "festa_major_vimbodí_i_poblet": {
    "nom": "Festa Major",
    "ubicacio": "Vimbodí i Poblet",
    "data_inici": "2025/08/01",
    "data_fi": "2025/08/06",
    "latitud": 41.401575,
    "longitud": 1.0513166667,
    "cartell": "https://festacatalana.github.io/fires-assets/cartells/setmana_31/festa_major_vimbodí_i_poblet.png",
    "pdf": "https://festacatalana.github.io/fires-assets/pdfs/setmana_31/festa_major_vimbodí_i_poblet.pdf"
  },
  "festa_major_sant_esteve_de_palautordera": {
    "nom": "Festa Major",
    "ubicacio": "Sant Esteve de Palautordera",
    "data_inici": "2025/08/01",
    "data_fi": "2025/08/04",
    "latitud": 41.7045444444,
    "longitud": 2.4358666667,
    "cartell": "https://festacatalana.github.io/fires-assets/cartells/setmana_31/festa_major_sant_esteve_de_palautordera.png",
    "pdf": "https://festacatalana.github.io/fires-assets/pdfs/setmana_31/festa_major_sant_esteve_de_palautordera.pdf"
  },
  "festa_major_de_la_papiola_albinyana": {
    "nom": "Festa Major de la Papiola",
    "ubicacio": "Albinyana",
    "data_inici": "2025/08/08",
    "data_fi": "2025/08/10",
    "latitud": 41.2469333333,
    "longitud": 1.4891166667,
    "cartell": "https://festacatalana.github.io/fires-assets/cartells/setmana_32/festa_major_de_la_papiola_albinyana.png",
    "pdf": "https://festacatalana.github.io/fires-assets/pdfs/setmana_32/festa_major_de_la_papiola_albinyana.pdf"
  },
  "festa_major_seva": {
    "nom": "Festa Major",
    "ubicacio": "Seva",
    "data_inici": "2025/08/02",
    "data_fi": "2025/08/17",
    "latitud": 41.8397972222,
    "longitud": 2.2852861111,
    "cartell": "https://festacatalana.github.io/fires-assets/cartells/setmana_31/festa_major_seva.png",
    "pdf": "https://festacatalana.github.io/fires-assets/pdfs/setmana_31/festa_major_seva.pdf"
  },
  "festa_major_torrebesses": {
    "nom": "Festa Major",
    "ubicacio": "Torrebesses",
    "data_inici": "2025/08/05",
    "data_fi": "2025/08/10",
    "latitud": 41.4273916667,
    "longitud": 0.5952222222,
    "cartell": "https://festacatalana.github.io/fires-assets/cartells/setmana_32/festa_major_torrebesses.png",
    "pdf": "https://festacatalana.github.io/fires-assets/pdfs/setmana_32/festa_major_torrebesses.pdf"
  },
  "festa_major_golmés": {
    "nom": "Festa Major",
    "ubicacio": "Golmés",
    "data_inici": "2025/08/06",
    "data_fi": "2025/08/10",
    "latitud": 41.6352361111,
    "longitud": 0.9320444444,
    "cartell": "https://festacatalana.github.io/fires-assets/cartells/setmana_32/festa_major_golmés.png",
    "pdf": "https://festacatalana.github.io/fires-assets/pdfs/setmana_32/festa_major_golmés.pdf"
  },
  "festa_major_bigues_i_riells_del_fai": {
    "nom": "Festa Major",
    "ubicacio": "Bigues i Riells del Fai",
    "data_inici": "2025/08/07",
    "data_fi": "2025/08/10",
    "latitud": 41.6779083333,
    "longitud": 2.2237444444,
    "cartell": "https://festacatalana.github.io/fires-assets/cartells/setmana_32/festa_major_bigues_i_riells_del_fai.png",
    "pdf": "https://festacatalana.github.io/fires-assets/pdfs/setmana_32/festa_major_bigues_i_riells_del_fai.pdf"
  },
  "festa_major_fontrubí": {
    "nom": "Festa Major",
    "ubicacio": "Font-rubí",
    "data_inici": "2025/08/08",
    "data_fi": "2025/08/17",
    "latitud": 41.4146861111,
    "longitud": 1.6521416667,
    "cartell": "https://festacatalana.github.io/fires-assets/cartells/setmana_32/festa_major_fontrubí.png",
    "pdf": "https://festacatalana.github.io/fires-assets/pdfs/setmana_32/festa_major_fontrubí.pdf"
  },
  "festes_majors_deltebre": {
    "nom": "Festes Majors",
    "ubicacio": "Deltebre",
    "data_inici": "2025/08/08",
    "data_fi": "2025/08/17",
    "latitud": 40.7209305556,
    "longitud": 0.7232472222,
    "cartell": "https://festacatalana.github.io/fires-assets/cartells/setmana_32/festes_majors_deltebre.png",
    "pdf": "https://festacatalana.github.io/fires-assets/pdfs/setmana_32/festes_majors_deltebre.pdf"
  },
  "festes_majors_amposta": {
    "nom": "Festes Majors",
    "ubicacio": "Amposta",
    "data_inici": "2025/08/08",
    "data_fi": "2025/08/17",
    "latitud": 40.7099305556,
    "longitud": 0.5809916667,
    "cartell": "https://festacatalana.github.io/fires-assets/cartells/setmana_32/festes_majors_amposta.png",
    "pdf": "https://festacatalana.github.io/fires-assets/pdfs/setmana_32/festes_majors_amposta.pdf"
  }
}